{
    "locations": [
        { "name": "Tehran", "lat": 35.6892, "lng": 51.3890 },
        { "name": "Isfahan", "lat": 32.6546, "lng": 51.6680 },
        { "name": "Shiraz", "lat": 29.5918, "lng": 52.5837 },
        { "name": "Tabriz", "lat": 38.0800, "lng": 46.2919 },
        { "name": "Mashhad", "lat": 36.2605, "lng": 59.6168 },
        { "name": "Ahvaz", "lat": 31.3183, "lng": 48.6706 },
        { "name": "Kermanshah", "lat": 34.3142, "lng": 47.0650 },
        { "name": "Rasht", "lat": 37.2808, "lng": 49.5832 }
    ]
}
